[
    { "name": "Antipolo", "lat": 13.940939741849922, "lng": 124.2840600013733, "municipality": "Bagamanoc" },
    { "name": "Bacak", "lat": 13.954934139086284, "lng": 124.28272962570192, "municipality": "Bagamanoc" },
    { "name": "Bagatabao", "lat": 13.941106346809294, "lng": 124.29197788238525, "municipality": "Bagamanoc" },
    { "name": "Bugao", "lat": 13.995017552291957, "lng": 124.27702188491823, "municipality": "Bagamanoc" },
    { "name": "Cahan", "lat": 13.96205596161565, "lng": 124.23854827880861, "municipality": "Bagamanoc" },
    { "name": "Hinipaan", "lat": 13.96919838713613, "lng": 124.26436185836793, "municipality": "Bagamanoc" },
    { "name": "Magsaysay", "lat": 13.994538674798681, "lng": 124.27487611770631, "municipality": "Bagamanoc" },
    { "name": "Poblacion", "lat": 13.940981393101033, "lng": 124.28738594055177, "municipality": "Bagamanoc" },
    { "name": "Quigaray", "lat": 13.958151480897884, "lng": 124.31539893150331, "municipality": "Bagamanoc" },
    { "name": "Quezon (Pancayanan)", "lat": 13.927308966353428, "lng": 124.28878068923952, "municipality": "Bagamanoc" },
    { "name": "Sagrada", "lat": 14.00700998499103, "lng": 124.2413377761841, "municipality": "Bagamanoc" },
    { "name": "Salvacion (Panuto)", "lat": 13.94027332080994, "lng": 124.26605701446535, "municipality": "Bagamanoc" },
    { "name": "San Isidro", "lat": 14.003116677019994, "lng": 124.26335334777833, "municipality": "Bagamanoc" },
    { "name": "San Rafael (Mahantod)", "lat": 13.944063564824777, "lng": 124.28202152252199, "municipality": "Bagamanoc" },
    { "name": "San Vicente", "lat": 14.011548624340119, "lng": 124.24777507781984, "municipality": "Bagamanoc" },
    { "name": "Santa Mesa", "lat": 13.9388155180772, "lng": 124.28963899612428, "municipality": "Bagamanoc" },
    { "name": "Santa Teresa", "lat": 13.939336162967175, "lng": 124.28665637969972, "municipality": "Bagamanoc" },
    { "name": "Suchan", "lat": 13.954142811890895, "lng": 124.3212676048279, "municipality": "Bagamanoc" },

    { "name": "Abihao", "lat": 13.665294943338392, "lng": 124.39300060272218, "municipality": "Baras" },
    { "name": "Agban", "lat": 13.712245039036597, "lng": 124.38456773757936, "municipality": "Baras" },
    { "name": "Bagong Sirang", "lat": 13.660916348717553, "lng": 124.37201499938966, "municipality": "Baras" },
    { "name": "Benticayan", "lat": 13.69836112887948, "lng": 124.38767910003664, "municipality": "Baras" },
    { "name": "Buenavista", "lat": 13.658622766694371, "lng": 124.36738014221193, "municipality": "Baras" },
    { "name": "Caragumihan", "lat": 13.670924445449206, "lng": 124.36841011047363, "municipality": "Baras" },
    { "name": "Batolinao", "lat": 13.64135763346417, "lng": 124.34120178222658, "municipality": "Baras" },
    { "name": "Danao", "lat": 13.65174188676861, "lng": 124.37918186187746, "municipality": "Baras" },
    { "name": "Genitligan", "lat": 13.730276219356352, "lng": 124.38467502593996, "municipality": "Baras" },
    { "name": "Guinsaanan", "lat": 13.670048753955692, "lng": 124.40227031707765, "municipality": "Baras" },
    { "name": "J. M. Alberto", "lat": 13.709389106534537, "lng": 124.38109159469606, "municipality": "Baras" },
    { "name": "Macutal", "lat": 13.678430238978205, "lng": 124.37047004699708, "municipality": "Baras" },
    { "name": "Moning", "lat": 13.656454268625744, "lng": 124.36012744903566, "municipality": "Baras" },
    { "name": "Nagbarorong", "lat": 13.665003039561089, "lng": 124.36592102050783, "municipality": "Baras" },
    { "name": "Osmeña", "lat": 13.661666970715046, "lng": 124.3654489517212, "municipality": "Baras" },
    { "name": "P. Teston", "lat": 13.663043104835726, "lng": 124.37913894653322, "municipality": "Baras" },
    { "name": "Paniquihan", "lat": 13.67230052550454, "lng": 124.38210010528566, "municipality": "Baras" },
    { "name": "Eastern Poblacion", "lat": 13.65891467837287, "lng": 124.37186479568483, "municipality": "Baras" },
    { "name": "Puraran", "lat": 13.688520984242443, "lng": 124.3927001953125, "municipality": "Baras" },
    { "name": "Putsan", "lat": 13.65436915552354, "lng": 124.37819480895998, "municipality": "Baras" },
    { "name": "Quezon", "lat": 13.65995721713144, "lng": 124.36866760253908, "municipality": "Baras" },
    { "name": "Rizal", "lat": 13.675719841134638, "lng": 124.37128543853761, "municipality": "Baras" },
    { "name": "Sagrada", "lat": 13.65966530674375, "lng": 124.36128616333009, "municipality": "Baras" },
    { "name": "Salvacion", "lat": 13.63301653695742, "lng": 124.34484958648683, "municipality": "Baras" },
    { "name": "San Lorenzo", "lat": 13.659748709748548, "lng": 124.36995506286623, "municipality": "Baras" },
    { "name": "San Miguel", "lat": 13.679806275171984, "lng": 124.39999580383302, "municipality": "Baras" },
    { "name": "Santa Maria", "lat": 13.666837857297347, "lng": 124.3477249145508, "municipality": "Baras" },
    { "name": "Tilod", "lat": 13.650157170832097, "lng": 124.34519290924074, "municipality": "Baras" },
    { "name": "Western Poblacion", "lat": 13.659047, "lng": 124.3681125, "municipality": "Baras" },

    { "name": "Aroyao Pequeño", "lat": 13.627636373453742, "lng": 124.30867195129396, "municipality": "Bato" },
    { "name": "Bagumbayan", "lat": 13.618898560135868, "lng": 124.31993722915651, "municipality": "Bato" },
    { "name": "Banawang (Poblacion)", "lat": 13.603590968298324, "lng": 124.29869413375856, "municipality": "Bato" },
    { "name": "Batalay", "lat": 13.589241809169785, "lng": 124.31199789047243, "municipality": "Bato" },
    { "name": "Binanwahan", "lat": 13.597271605609777, "lng": 124.27427530288698, "municipality": "Bato" },
    { "name": "Bote", "lat": 13.563648929324295, "lng": 124.32746887207033, "municipality": "Bato" },
    { "name": "Buenavista", "lat": 13.623945260208984, "lng": 124.3318033218384, "municipality": "Bato" },
    { "name": "Cabugao", "lat": 13.596103652130886, "lng": 124.2812490463257, "municipality": "Bato" },
    { "name": "Cagraray", "lat": 13.613789187955897, "lng": 124.34386253356935, "municipality": "Bato" },
    { "name": "Carorian", "lat": 13.577332181625707, "lng": 124.33480739593507, "municipality": "Bato" },
    { "name": "Guinobatan", "lat": 13.603862092297595, "lng": 124.29096937179567, "municipality": "Bato" },
    { "name": "Libjo", "lat": 13.616959097161407, "lng": 124.31686878204347, "municipality": "Bato" },
    { "name": "Marinawa", "lat": 13.596020226662057, "lng": 124.26665782928468, "municipality": "Bato" },
    { "name": "Mintay", "lat": 13.613497220498038, "lng": 124.30940151214601, "municipality": "Bato" },
    { "name": "Oguis", "lat": 13.626551984581788, "lng": 124.29987430572511, "municipality": "Bato" },
    { "name": "Pananaogan", "lat": 13.566944662807824, "lng": 124.31901454925539, "municipality": "Bato" },
    { "name": "Libod (Poblacion)", "lat": 13.608929968367029, "lng": 124.29811477661134, "municipality": "Bato" },
    { "name": "San Andres", "lat": 13.598689827092304, "lng": 124.28637742996217, "municipality": "Bato" },
    { "name": "San Pedro", "lat": 13.610786076897908, "lng": 124.32068824768068, "municipality": "Bato" },
    { "name": "San Roque", "lat": 13.599398934649178, "lng": 124.32600975036623, "municipality": "Bato" },
    { "name": "Santa Isabel", "lat": 13.615457566516971, "lng": 124.32302713394166, "municipality": "Bato" },
    { "name": "Sibacungan", "lat": 13.631139749648982, "lng": 124.29927349090578, "municipality": "Bato" },
    { "name": "Sipi", "lat": 13.610702656602228, "lng": 124.29341554641725, "municipality": "Bato" },
    { "name": "Talisay", "lat": 13.607428386769039, "lng": 124.31341409683229, "municipality": "Bato" },
    { "name": "Tamburan (Poblacion)", "lat": 13.60701127907901, "lng": 124.30193424224855, "municipality": "Bato" },
    { "name": "Tilis", "lat": 13.614852780648132, "lng": 124.2986297607422, "municipality": "Bato" },
    { "name": "Ilawod (Poblacion)", "lat": 13.60548925984645, "lng": 124.29844122912203, "municipality": "Bato" },

    { "name": "Baybay (Poblacion)", "lat": 13.984252978326943, "lng": 124.13179636001588, "municipality": "Caramoran" },
    { "name": "Bocon", "lat": 13.871371681397992, "lng": 124.13765430450441, "municipality": "Caramoran" },
    { "name": "Bothoan (Poblacion)", "lat": 13.98587706624504, "lng": 124.13529396057129, "municipality": "Caramoran" },
    { "name": "Buenavista", "lat": 13.987626071180136, "lng": 124.18121337890626, "municipality": "Caramoran" },
    { "name": "Bulalacao", "lat": 13.784569832130757, "lng": 124.13859844207765, "municipality": "Caramoran" },
    { "name": "Camburo", "lat": 14.003449796860846, "lng": 124.1459369659424, "municipality": "Caramoran" },
    { "name": "Dariao", "lat": 13.966470548130847, "lng": 124.13503646850587, "municipality": "Caramoran" },
    { "name": "Datag East", "lat": 13.879225170604576, "lng": 124.13849115371706, "municipality": "Caramoran" },
    { "name": "Datag West", "lat": 13.878121115242108, "lng": 124.13583040237428, "municipality": "Caramoran" },
    { "name": "Guiamlong", "lat": 13.805241858070454, "lng": 124.13546562194826, "municipality": "Caramoran" },
    { "name": "Hitoma", "lat": 13.785570133602237, "lng": 124.13331985473634, "municipality": "Caramoran" },
    { "name": "Icanbato (Poblacion)", "lat": 13.982857919295064, "lng": 124.13527250289918, "municipality": "Caramoran" },
    { "name": "Inalmasinan", "lat": 13.791696886607781, "lng": 124.1367530822754, "municipality": "Caramoran" },
    { "name": "Iyao", "lat": 13.770023297553776, "lng": 124.13778305053712, "municipality": "Caramoran" },
    { "name": "Mabini", "lat": 13.917322272790013, "lng": 124.16426181793213, "municipality": "Caramoran" },
    { "name": "Maui", "lat": 13.895577072978393, "lng": 124.14662361145021, "municipality": "Caramoran" },
    { "name": "Maysuran", "lat": 13.978214602192287, "lng": 124.16327476501466, "municipality": "Caramoran" },
    { "name": "Milaviga", "lat": 13.857955557143267, "lng": 124.13825511932374, "municipality": "Caramoran" },
    { "name": "Panique", "lat": 13.908991020091047, "lng": 124.14705276489259, "municipality": "Caramoran" },
    { "name": "Sabangan", "lat": 13.925486609205047, "lng": 124.15117263793947, "municipality": "Caramoran" },
    { "name": "Sabloyon", "lat": 13.881495758506489, "lng": 124.152889251709, "municipality": "Caramoran" },
    { "name": "Salvacion", "lat": 13.775858692398845, "lng": 124.13980007171632, "municipality": "Caramoran" },
    { "name": "Supang", "lat": 13.877746151847779, "lng": 124.13280487060548, "municipality": "Caramoran" },
    { "name": "Toytoy (Poblacion)", "lat": 13.988375640652622, "lng": 124.1338348388672, "municipality": "Caramoran" },
    { "name": "Tubli", "lat": 13.933150825795781, "lng": 124.14752483367921, "municipality": "Caramoran" },
    { "name": "Tucao", "lat": 13.984877628883043, "lng": 124.16301727294923, "municipality": "Caramoran" },
    { "name": "Obi", "lat": 13.754141949908695, "lng": 124.14902687072755, "municipality": "Caramoran" },

    { "name": "Biong", "lat": 13.765750862539837, "lng": 124.39675569534303, "municipality": "Gigmoto" },
    { "name": "Dororian", "lat": 13.750640405410149, "lng": 124.39295768737794, "municipality": "Gigmoto" },
    { "name": "Poblacion District I", "lat": 13.78067278345697, "lng": 124.39259290695192, "municipality": "Gigmoto" },
    { "name": "Poblacion District II", "lat": 13.786128, "lng": 124.379433, "municipality": "Gigmoto" },
    { "name": "Poblacion District III", "lat": 13.77558776657752, "lng": 124.39231395721437, "municipality": "Gigmoto" },
    { "name": "San Pedro", "lat": 13.785903566473891, "lng": 124.37973976135255, "municipality": "Gigmoto" },
    { "name": "San Vicente", "lat": 13.783986320960402, "lng": 124.39407348632814, "municipality": "Gigmoto" },
    { "name": "Sicmil", "lat": 13.83370457161231, "lng": 124.39999580383302, "municipality": "Gigmoto" },
    { "name": "Sioron", "lat": 13.802449574463488, "lng": 124.41462993621828, "municipality": "Gigmoto" },

    { "name": "Bagawang", "lat": 14.032762450171292, "lng": 124.17357444763185, "municipality": "Pandan" },
    { "name": "Balagñonan", "lat": 14.048832854464454, "lng": 124.13701057434083, "municipality": "Pandan" },
    { "name": "Baldoc", "lat": 14.075808613224291, "lng": 124.21614646911623, "municipality": "Pandan" },
    { "name": "Canlubi", "lat": 14.064069553647498, "lng": 124.1898822784424, "municipality": "Pandan" },
    { "name": "Catamban", "lat": 14.025309729985166, "lng": 124.14625883102418, "municipality": "Pandan" },
    { "name": "Cobo", "lat": 14.012818594517096, "lng": 124.141001701355, "municipality": "Pandan" },
    { "name": "Hiyop", "lat": 14.07522583725428, "lng": 124.1931438446045, "municipality": "Pandan" },
    { "name": "Libod (Poblacion)", "lat": 14.043087606232701, "lng": 124.17112827301027, "municipality": "Pandan" },
    { "name": "Lourdes", "lat": 14.035676855859498, "lng": 124.24575805664064, "municipality": "Pandan" },
    { "name": "Lumabao", "lat": 14.015795710180413, "lng": 124.16878938674928, "municipality": "Pandan" },
    { "name": "Marambong", "lat": 14.066900304013151, "lng": 124.22378540039064, "municipality": "Pandan" },
    { "name": "Napo (Poblacion)", "lat": 14.047084315912551, "lng": 124.1708278656006, "municipality": "Pandan" },
    { "name": "Oga", "lat": 14.036093196504172, "lng": 124.15340423583986, "municipality": "Pandan" },
    { "name": "Pandan del Norte (Poblacion)", "lat": 14.046667995241798, "lng": 124.16829586029054, "municipality": "Pandan" },
    { "name": "Pandan del Sur (Poblacion)", "lat": 14.042213316693875, "lng": 124.16831731796266, "municipality": "Pandan" },
    { "name": "Panuto", "lat": 14.003116677019994, "lng": 124.1683602333069, "municipality": "Pandan" },
    { "name": "Porot (San Jose)", "lat": 14.041339023818315, "lng": 124.22593116760255, "municipality": "Pandan" },
    { "name": "Salvacion (Tariwara)", "lat": 14.045252499300123, "lng": 124.18910980224611, "municipality": "Pandan" },
    { "name": "San Andres (Dinungsuran)", "lat": 14.02193719042059, "lng": 124.13598060607912, "municipality": "Pandan" },
    { "name": "San Isidro (Langob)", "lat": 14.015316876001064, "lng": 124.20730590820314, "municipality": "Pandan" },
    { "name": "San Rafael (Bogtong)", "lat": 14.015565, "lng": 124.154387, "municipality": "Pandan" },
    { "name": "San Roque", "lat": 14.054328174405786, "lng": 124.23502922058107, "municipality": "Pandan" },
    { "name": "Santa Cruz (Catagbacan)", "lat": 14.026433898821098, "lng": 124.16035652160646, "municipality": "Pandan" },
    { "name": "Tabugoc", "lat": 14.053662082045099, "lng": 124.23726081848146, "municipality": "Pandan" },
    { "name": "Tokio", "lat": 14.029598196329616, "lng": 124.24211025238039, "municipality": "Pandan" },
    { "name": "Wagdas", "lat": 14.030334, "lng": 124.191923, "municipality": "Pandan" },

    { "name": "Alinawan", "lat": 13.910365697457799, "lng": 124.32918548583986, "municipality": "Panganiban" },
    { "name": "Babaguan", "lat": 13.946770843864563, "lng": 124.32987213134767, "municipality": "Panganiban" },
    { "name": "Bagong Bayan", "lat": 13.908157878317823, "lng": 124.29367303848268, "municipality": "Panganiban" },
    { "name": "Burabod", "lat": 13.909157648085687, "lng": 124.28736448287965, "municipality": "Panganiban" },
    { "name": "Cabuyoan", "lat": 13.882641459557327, "lng": 124.28367376327516, "municipality": "Panganiban" },
    { "name": "Cagdarao", "lat": 13.9255699172739, "lng": 124.35283184051515, "municipality": "Panganiban" },
    { "name": "Mabini", "lat": 13.901867561114681, "lng": 124.2855191230774, "municipality": "Panganiban" },
    { "name": "Maculiw", "lat": 13.930651652672939, "lng": 124.33339118957521, "municipality": "Panganiban" },
    { "name": "Panay", "lat": 13.951185723074364, "lng": 124.33776855468751, "municipality": "Panganiban" },
    { "name": "Taopon (Pangcayanan)", "lat": 13.922727012450554, "lng": 124.28909182548524, "municipality": "Panganiban" },
    { "name": "Salvacion (Poblacion)", "lat": 13.905533462124554, "lng": 124.29839372634889, "municipality": "Panganiban" },
    { "name": "San Antonio", "lat": 13.910698951346893, "lng": 124.32369232177736, "municipality": "Panganiban" },
    { "name": "San Joaquin (Poblacion)", "lat": 13.90665821556627, "lng": 124.30171966552736, "municipality": "Panganiban" },
    { "name": "San Jose (Poblacion)", "lat": 13.907262247565738, "lng": 124.30217027664186, "municipality": "Panganiban" },
    { "name": "San Juan (Poblacion)", "lat": 13.90784544937943, "lng": 124.30119395256044, "municipality": "Panganiban" },
    { "name": "San Miguel", "lat": 13.895868688788541, "lng": 124.27348136901857, "municipality": "Panganiban" },
    { "name": "San Nicolas (Poblacion)", "lat": 13.908886877533455, "lng": 124.29972410202028, "municipality": "Panganiban" },
    { "name": "San Pedro (Poblacion)", "lat": 13.908532792487026, "lng": 124.3036723136902, "municipality": "Panganiban" },
    { "name": "San Vicente (Poblacion)", "lat": 13.906491585771704, "lng": 124.29912328720094, "municipality": "Panganiban" },
    { "name": "Santa Ana (Poblacion)", "lat": 13.903825492741682, "lng": 124.30485248565675, "municipality": "Panganiban" },
    { "name": "Santa Maria (Poblacion)", "lat": 13.907741306306217, "lng": 124.29946660995485, "municipality": "Panganiban" },
    { "name": "Santo Santiago (Poblacion)", "lat": 13.90709561820612, "lng": 124.29912328720094, "municipality": "Panganiban" },
    { "name": "Tibo", "lat": 13.90940758985264, "lng": 124.34150218963624, "municipality": "Panganiban" },

    { "name": "Agojo", "lat": 13.598940100590081, "lng": 124.06130790710449, "municipality": "San Andres" },
    { "name": "Alibuag", "lat": 13.603945515004137, "lng": 124.08113479614259, "municipality": "San Andres" },
    { "name": "Asgad (Juan M. Alberto)", "lat": 13.669339858457658, "lng": 124.04603004455568, "municipality": "San Andres" },
    { "name": "Bagong Sirang", "lat": 13.623632451352556, "lng": 124.05705928802492, "municipality": "San Andres" },
    { "name": "Barihay", "lat": 13.706241286683618, "lng": 124.09748554229738, "municipality": "San Andres" },
    { "name": "Batong Paloway", "lat": 13.610077003447218, "lng": 124.09340858459474, "municipality": "San Andres" },
    { "name": "Belmonte (Poblacion)", "lat": 13.597688730456683, "lng": 124.10295724868776, "municipality": "San Andres" },
    { "name": "Bislig", "lat": 13.64064865171836, "lng": 124.04152393341066, "municipality": "San Andres" },
    { "name": "Bon-ot", "lat": 13.587677531446674, "lng": 124.11310672760011, "municipality": "San Andres" },
    { "name": "Cabungahan", "lat": 13.746388459547637, "lng": 124.12014484405519, "municipality": "San Andres" },
    { "name": "Cabcab", "lat": 13.626426862468717, "lng": 124.05096530914308, "municipality": "San Andres" },
    { "name": "Carangag", "lat": 13.607198977630471, "lng": 124.10529613494874, "municipality": "San Andres" },
    { "name": "Catagbacan", "lat": 13.620128963884529, "lng": 124.06371116638185, "municipality": "San Andres" },
    { "name": "Codon", "lat": 13.662959702996512, "lng": 124.03985023498537, "municipality": "San Andres" },
    { "name": "Comagaycay", "lat": 13.602777594437725, "lng": 124.08821582794191, "municipality": "San Andres" },
    { "name": "Datag", "lat": 13.614289702759656, "lng": 124.07366752624513, "municipality": "San Andres" },
    { "name": "Divino Rostro (Poblacion)", "lat": 13.600379168070118, "lng": 124.0955114364624, "municipality": "San Andres" },
    { "name": "Esperanza (Poblacion)", "lat": 13.59566566809176, "lng": 124.09834384918214, "municipality": "San Andres" },
    { "name": "Hilawan", "lat": 13.709576723604144, "lng": 124.10203456878664, "municipality": "San Andres" },
    { "name": "Lictin", "lat": 13.602673315535581, "lng": 124.12761211395265, "municipality": "San Andres" },
    { "name": "Lubas", "lat": 13.763854293201451, "lng": 124.12795543670656, "municipality": "San Andres" },
    { "name": "Manambrag", "lat": 13.735799945233476, "lng": 124.10611152648927, "municipality": "San Andres" },
    { "name": "Mayngaway", "lat": 13.683350573778403, "lng": 124.0598487854004, "municipality": "San Andres" },
    { "name": "Palawig", "lat": 13.572931099640755, "lng": 124.14205312728883, "municipality": "San Andres" },
    { "name": "Puting Baybay", "lat": 13.69364958558022, "lng": 124.07289505004884, "municipality": "San Andres" },
    { "name": "Rizal", "lat": 13.600087184071123, "lng": 124.14741754531862, "municipality": "San Andres" },
    { "name": "Salvacion (Poblacion)", "lat": 13.59860640253426, "lng": 124.09821510314943, "municipality": "San Andres" },
    { "name": "San Isidro", "lat": 13.670924445449206, "lng": 124.07401084899904, "municipality": "San Andres" },
    { "name": "San Jose", "lat": 13.593162886621261, "lng": 124.15044307708742, "municipality": "San Andres" },
    { "name": "San Roque (Poblacion)", "lat": 13.597584449313812, "lng": 124.09761428833008, "municipality": "San Andres" },
    { "name": "San Vicente", "lat": 13.629805136270596, "lng": 124.08375263214113, "municipality": "San Andres" },
    { "name": "Santa Cruz (Poblacion)", "lat": 13.597042186630892, "lng": 124.09873008728029, "municipality": "San Andres" },
    { "name": "Sapang Palay (Poblacion)", "lat": 13.600108040082992, "lng": 124.09873008728029, "municipality": "San Andres" },
    { "name": "Tibang", "lat": 13.69756892908744, "lng": 124.0875291824341, "municipality": "San Andres" },
    { "name": "Timbaan", "lat": 13.603570112593214, "lng": 124.11628246307374, "municipality": "San Andres" },
    { "name": "Tominawog", "lat": 13.605321985418271, "lng": 124.07220840454103, "municipality": "San Andres" },
    { "name": "Wagdas (Poblacion)", "lat": 13.595269396120543, "lng": 124.10158395767213, "municipality": "San Andres" },
    { "name": "Yocti", "lat": 13.58154546324145, "lng": 124.1230845451355, "municipality": "San Andres" },

    { "name": "Balatohan", "lat": 13.715497007474449, "lng": 124.2783308029175, "municipality": "San Miguel" },
    { "name": "Salvacion (Patagan)", "lat": 13.665420044846543, "lng": 124.3211603164673, "municipality": "San Miguel" },
    { "name": "Boton", "lat": 13.647905187769569, "lng": 124.30532455444337, "municipality": "San Miguel" },
    { "name": "Buhi", "lat": 13.675928334384164, "lng": 124.30794239044191, "municipality": "San Miguel" },
    { "name": "Dayawa", "lat": 13.680973814725462, "lng": 124.30940151214601, "municipality": "San Miguel" },
    { "name": "Atsan (District I)", "lat": 13.637437354798989, "lng": 124.30094718933107, "municipality": "San Miguel" },
    { "name": "Poblacion District II", "lat": 13.640906665373501, "lng": 124.30237656199382, "municipality": "San Miguel" },
    { "name": "Poblacion District III", "lat": 13.643262976261834, "lng": 124.30199032389568, "municipality": "San Miguel" },
    { "name": "J. M. Alberto", "lat": 13.74046895540498, "lng": 124.24262523651124, "municipality": "San Miguel" },
    { "name": "Katipunan", "lat": 13.662083981903063, "lng": 124.31133270263673, "municipality": "San Miguel" },
    { "name": "Kilikilihan", "lat": 13.701363124914957, "lng": 124.2818069458008, "municipality": "San Miguel" },
    { "name": "Mabato", "lat": 13.69252380462292, "lng": 124.29787874221803, "municipality": "San Miguel" },
    { "name": "Obo", "lat": 13.670173852939781, "lng": 124.31347846984865, "municipality": "San Miguel" },
    { "name": "Pacogon", "lat": 13.696443166895873, "lng": 124.29476737976076, "municipality": "San Miguel" },
    { "name": "Pagsangahan", "lat": 13.724710673388127, "lng": 124.27146434783937, "municipality": "San Miguel" },
    { "name": "Pangilao", "lat": 13.670841046399605, "lng": 124.30777072906496, "municipality": "San Miguel" },
    { "name": "Paraiso", "lat": 13.743220292836106, "lng": 124.27094936370851, "municipality": "San Miguel" },
    { "name": "Santa Elena (Patagan)", "lat": 13.660958050002339, "lng": 124.32085990905763, "municipality": "San Miguel" },
    { "name": "Progreso", "lat": 13.767980874944765, "lng": 124.26987648010255, "municipality": "San Miguel" },
    { "name": "San Juan (Aroyao)", "lat": 13.634976721116297, "lng": 124.31008815765382, "municipality": "San Miguel" },
    { "name": "San Marcos", "lat": 13.715913923247351, "lng": 124.25219535827637, "municipality": "San Miguel" },
    { "name": "Siay", "lat": 13.68764535820416, "lng": 124.30171966552736, "municipality": "San Miguel" },
    { "name": "Solong", "lat": 13.651074639250703, "lng": 124.29888725280763, "municipality": "San Miguel" },
    { "name": "Tobrehon", "lat": 13.728963012549407, "lng": 124.2453718185425, "municipality": "San Miguel" },

    { "name": "Asuncion Poblacion", "lat": 13.871871646195046, "lng": 124.30779218673707, "municipality": "Viga" },
    { "name": "Peñafrancia Poblacion", "lat": 13.880162571974637, "lng": 124.31064605712892, "municipality": "Viga" },
    { "name": "San Isidro Poblacion", "lat": 13.867121937128674, "lng": 124.30755615234376, "municipality": "Viga" },
    { "name": "San Jose Poblacion", "lat": 13.87462143331955, "lng": 124.30918693542482, "municipality": "Viga" },
    { "name": "San Pedro Poblacion", "lat": 13.87499640176563, "lng": 124.3100666999817, "municipality": "Viga" },
    { "name": "San Roque Poblacion", "lat": 13.874288127525306, "lng": 124.30167675018312, "municipality": "Viga" },
    { "name": "San Vicente Poblacion †", "lat": 13.868788512784592, "lng": 124.30957317352296, "municipality": "Viga" },
    { "name": "Almojuela", "lat": 13.849747173484115, "lng": 124.26283836364748, "municipality": "Viga" },
    { "name": "Burgos", "lat": 13.852830559729965, "lng": 124.27545547485353, "municipality": "Viga" },
    { "name": "Del Pilar", "lat": 13.85974719622957, "lng": 124.29193496704103, "municipality": "Viga" },
    { "name": "Osmeña", "lat": 13.850497190120363, "lng": 124.28837299346925, "municipality": "Viga" },
    { "name": "Pedro Vera (Summit)", "lat": 13.790529898431688, "lng": 124.26961898803712, "municipality": "Viga" },
    { "name": "Quezon", "lat": 13.86024718606577, "lng": 124.28240776062013, "municipality": "Viga" },
    { "name": "Rizal", "lat": 13.85383056810365, "lng": 124.3030071258545, "municipality": "Viga" },
    { "name": "Roxas", "lat": 13.848372136697687, "lng": 124.28476810455324, "municipality": "Viga" },
    { "name": "Sagrada", "lat": 13.843038583711635, "lng": 124.27983283996583, "municipality": "Viga" },
    { "name": "San Jose Oco †", "lat": 13.854163903271704, "lng": 124.2858409881592, "municipality": "Viga" },
    { "name": "Ananong", "lat": 13.857997223325519, "lng": 124.33871269226076, "municipality": "Viga" },
    { "name": "Batohonan", "lat": 13.90665821556627, "lng": 124.35450553894044, "municipality": "Viga" },
    { "name": "Begonia", "lat": 13.884974506009865, "lng": 124.35212373733522, "municipality": "Viga" },
    { "name": "Botinagan", "lat": 13.873871494609004, "lng": 124.39759254455568, "municipality": "Viga" },
    { "name": "Buenavista", "lat": 13.887536663896775, "lng": 124.38164949417116, "municipality": "Viga" },
    { "name": "Mabini", "lat": 13.834329628766067, "lng": 124.33502197265626, "municipality": "Viga" },
    { "name": "Magsaysay", "lat": 13.874246464267346, "lng": 124.34731721878053, "municipality": "Viga" },
    { "name": "Ogbong", "lat": 13.873329870699143, "lng": 124.33257579803468, "municipality": "Viga" },
    { "name": "Quirino (Abugan)", "lat": 13.879912598646506, "lng": 124.35695171356203, "municipality": "Viga" },
    { "name": "Santa Rosa", "lat": 13.870809219713552, "lng": 124.32274818420412, "municipality": "Viga" },
    { "name": "Soboc", "lat": 13.870392580549725, "lng": 124.38639163970949, "municipality": "Viga" },
    { "name": "Tambongon †", "lat": 13.893369112787267, "lng": 124.37053442001344, "municipality": "Viga" },
    { "name": "Tinago", "lat": 13.861413824830223, "lng": 124.39866542816164, "municipality": "Viga" },
    { "name": "Villa Aurora", "lat": 13.8480387932213, "lng": 124.39926624298097, "municipality": "Viga" },

    { "name": "Antipolo del Norte", "lat": 13.549714563450234, "lng": 124.20550346374513, "municipality": "Virac" },
    { "name": "Antipolo del Sur", "lat": 13.544165621481877, "lng": 124.2041301727295, "municipality": "Virac" },
    { "name": "Balite", "lat": 13.548671539128097, "lng": 124.1587257385254, "municipality": "Virac" },
    { "name": "Batag", "lat": 13.541078184179673, "lng": 124.16378974914552, "municipality": "Virac" },
    { "name": "Bigaa", "lat": 13.593392309356673, "lng": 124.19305801391603, "municipality": "Virac" },
    { "name": "Buenavista", "lat": 13.552147, "lng": 124.162126, "municipality": "Virac" },
    { "name": "Buyo", "lat": 13.613372091477224, "lng": 124.17546272277833, "municipality": "Virac" },
    { "name": "Cabihian", "lat": 13.5758243, "lng": 124.1691343, "municipality": "Virac" },
    { "name": "Calabnigan", "lat": 13.589888374280013, "lng": 124.17241573333742, "municipality": "Virac" },
    { "name": "Calampong", "lat": 13.547795395161483, "lng": 124.18623447418214, "municipality": "Virac" },
    { "name": "Calatagan Proper", "lat": 13.586718102669368, "lng": 124.2081642150879, "municipality": "Virac" },
    { "name": "Calatagan Tibang", "lat": 13.592975176945265, "lng": 124.20717716217042, "municipality": "Virac" },
    { "name": "Capilihan", "lat": 13.592182623340573, "lng": 124.24326896667482, "municipality": "Virac" },
    { "name": "Casoocan", "lat": 13.5369613, "lng": 124.1861521, "municipality": "Virac" },
    { "name": "Cavinitan", "lat": 13.579835130223096, "lng": 124.20181274414064, "municipality": "Virac" },
    { "name": "Gogon Sirangan", "lat": 13.579793414629554, "lng": 124.22811985015869, "municipality": "Virac" },
    { "name": "Concepcion (Poblacion)", "lat": 13.577519903686543, "lng": 124.2286777496338, "municipality": "Virac" },
    { "name": "Constantino (Poblacion)", "lat": 13.584799233466608, "lng": 124.23155307769777, "municipality": "Virac" },
    { "name": "Danicop", "lat": 13.594435137172539, "lng": 124.21927928924562, "municipality": "Virac" },
    { "name": "Dugui San Vicente", "lat": 13.65774702949037, "lng": 124.1540050506592, "municipality": "Virac" },
    { "name": "Dugui San Isidro", "lat": 13.642316840672535, "lng": 124.16619300842287, "municipality": "Virac" },
    { "name": "Dugui Too", "lat": 13.647821780576718, "lng": 124.18464660644533, "municipality": "Virac" },
    { "name": "F. Tacorda Village", "lat": 13.557724837700297, "lng": 124.18250083923341, "municipality": "Virac" },
    { "name": "Francia (Poblacion)", "lat": 13.5864219, "lng": 124.2384025, "municipality": "Virac" },
    { "name": "Gogon Centro", "lat": 13.578124784872152, "lng": 124.22612428665163, "municipality": "Virac" },
    { "name": "Hawan Grande", "lat": 13.557766557171902, "lng": 124.17095661163331, "municipality": "Virac" },
    { "name": "Hawan Ilaya", "lat": 13.565025633684051, "lng": 124.16730880737306, "municipality": "Virac" },
    { "name": "Hicming", "lat": 13.610827787034726, "lng": 124.19091224670412, "municipality": "Virac" },
    { "name": "Igang", "lat": 13.53398527106676, "lng": 124.20932292938234, "municipality": "Virac" },
    { "name": "Juan M. Alberto (Poniton)", "lat": 13.602569036587523, "lng": 124.18048381805421, "municipality": "Virac" },
    { "name": "Lanao (Poblacion)", "lat": 13.587468960303662, "lng": 124.23412799835206, "municipality": "Virac" },
    { "name": "Magnesia del Norte", "lat": 13.532733558573813, "lng": 124.1786813735962, "municipality": "Virac" },
    { "name": "Magnesia del Sur", "lat": 13.52835251302176, "lng": 124.18228626251222, "municipality": "Virac" },
    { "name": "Marcelo Alberto (Poblacion)", "lat": 13.585800384553478, "lng": 124.23335552215576, "municipality": "Virac" },
    { "name": "Marilima", "lat": 13.536530399503015, "lng": 124.16979789733888, "municipality": "Virac" },
    { "name": "Pajo Baguio", "lat": 13.559727364074162, "lng": 124.19923782348634, "municipality": "Virac" },
    { "name": "Pajo San Isidro", "lat": 13.565859996078313, "lng": 124.2041301727295, "municipality": "Virac" },
    { "name": "Palnab del Norte", "lat": 13.57560096006337, "lng": 124.22393560409546, "municipality": "Virac" },
    { "name": "Palnab del Sur", "lat": 13.573327408945705, "lng": 124.22245502471925, "municipality": "Virac" },
    { "name": "Palta Big", "lat": 13.575288087348948, "lng": 124.16022777557374, "municipality": "Virac" },
    { "name": "Palta Salvacion", "lat": 13.577916205327195, "lng": 124.15842533111574, "municipality": "Virac" },
    { "name": "Palta Small", "lat": 13.586592959499106, "lng": 124.16344642639162, "municipality": "Virac" },
    { "name": "Rawis (Poblacion)", "lat": 13.585159, "lng": 124.238453, "municipality": "Virac" },
    { "name": "Salvacion", "lat": 13.581357744366374, "lng": 124.23288345336915, "municipality": "Virac" },
    { "name": "San Isidro Village", "lat": 13.578896527593903, "lng": 124.21839952468873, "municipality": "Virac" },
    { "name": "San Jose (Poblacion)", "lat": 13.580356574523366, "lng": 124.2311453819275, "municipality": "Virac" },
    { "name": "San Juan (Poblacion)", "lat": 13.580488, "lng": 124.229415, "municipality": "Virac" },
    { "name": "San Pablo (Poblacion)", "lat": 13.577999637167196, "lng": 124.23073768615724, "municipality": "Virac" },
    { "name": "San Pedro (Poblacion)", "lat": 13.581357744366374, "lng": 124.23116683959962, "municipality": "Virac" },
    { "name": "San Roque (Poblacion)", "lat": 13.581691466708222, "lng": 124.22876358032228, "municipality": "Virac" },
    { "name": "San Vicente", "lat": 13.594101432770813, "lng": 124.25335407257081, "municipality": "Virac" },
    { "name": "Ibong Sapa (San Vicente Sur)", "lat": 13.592641470487424, "lng": 124.24786090850831, "municipality": "Virac" },
    { "name": "Santa Cruz (Poblacion)", "lat": 13.582901206260845, "lng": 124.23620939254762, "municipality": "Virac" },
    { "name": "Santa Elena (Poblacion)", "lat": 13.584653231913245, "lng": 124.23429965972902, "municipality": "Virac" },
    { "name": "Santo Cristo", "lat": 13.576956737058403, "lng": 124.17627811431886, "municipality": "Virac" },
    { "name": "Santo Domingo", "lat": 13.590180370848445, "lng": 124.18254375457765, "municipality": "Virac" },
    { "name": "Santo Niño", "lat": 13.597584449313812, "lng": 124.23088788986207, "municipality": "Virac" },
    { "name": "Simamla", "lat": 13.612663025775928, "lng": 124.16666507720949, "municipality": "Virac" },
    { "name": "Sogod-Simamla", "lat": 13.613580639808472, "lng": 124.16035652160646, "municipality": "Virac" },
    { "name": "Talisoy", "lat": 13.52080023576445, "lng": 124.20588970184328, "municipality": "Virac" },
    { "name": "Sogod-Tibgao", "lat": 13.59385115416111, "lng": 124.22942876815797, "municipality": "Virac" },
    { "name": "Tubaon", "lat": 13.608492008051673, "lng": 124.17614936828615, "municipality": "Virac" },
    { "name": "Valencia", "lat": 13.585633526332568, "lng": 124.1942596435547, "municipality": "Virac" }
]